$GNGGA,071055.000,5127.2212,N,00058.9794,W,1,08,1.8,57.1,M,48.3,M,,0000*67   
$GNGLL,5127.2212,N,00058.9794,W,071055.000,A,A*5F                            
$GNGSA,A,3,12,31,25,29,26,16,,,,,,,2.2,1.8,1.2*28                            
$GNGSA,A,3,74,75,,,,,,,,,,,2.2,1.8,1.2*27                                    
$GPGSV,3,1,11,29,75,073,33,31,64,239,34,25,43,104,22,26,41,289,38*75         
$GPGSV,3,2,11,21,27,169,,02,13,038,,16,13,286,32,23,12,323,31*71
$GPGSV,3,3,11,05,07,070,,12,06,104,20,03,00,302,29*47       
$GLGSV,2,1,08,74,84,292,22,84,70,207,,83,50,042,,73,39,146,*63
$GLGSV,2,2,08,75,29,320,24,85,20,217,,66,11,345,,67,08,035,*65
$GNRMC,071055.000,A,5127.2212,N,00058.9794,W,000.0,195.9,011015,,,A*68
$GNVTG,195.9,T,,M,000.0,N,000.0,K,A*17                      
$GNZDA,071055.000,01,10,2015,00,00*48
$GNGGA,071056.000,5127.2212,N,00058.9794,W,1,09,1.6,57.1,M,48.3,M,,0000*6B
$GNGLL,5127.2212,N,00058.9794,W,071056.000,A,A*5C
$GNGSA,A,3,12,31,25,29,23,26,16,,,,,,1.9,1.6,1.1*2C                             
$GNGSA,A,3,74,75,,,,,,,,,,,1.9,1.6,1.1*22                                       
$GNRMC,071056.000,A,5127.2212,N,00058.9794,W,000.0,195.9,011015,,,A*6B          
$GNVTG,195.9,T,,M,000.0,N,000.0,K,A*17                                          
$GNZDA,071056.000,01,10,2015,00,00*4B                                           
$GNGGA,071057.000,5127.2212,N,00058.9794,W,1,09,1.6,57.1,M,48.3,M,,0000*6A      
$GNGLL,5127.2212,N,00058.9794,W,071057.000,A,A*5D                               
$GNGSA,A,3,12,31,25,29,23,26,16,,,,,,1.9,1.6,1.1*2C                             
$GNGSA,A,3,74,75,,,,,,,,,,,1.9,1.6,1.1*22                                       
$GNRMC,071057.000,A,5127.2212,N,00058.9794,W,000.0,195.9,011015,,,A*6A          
$GNVTG,195.9,T,,M,000.0,N,000.0,K,A*17                                          
$GNZDA,071057.000,01,10,2015,00,00*4A                                           
$GNGGA,071058.000,5127.2212,N,00058.9794,W,1,09,1.6,57.1,M,48.3,M,,0000*65      
$GNGLL,5127.2212,N,00058.9794,W,071058.000,A,A*52                               
$GNGSA,A,3,12,31,25,29,23,26,16,,,,,,1.9,1.6,1.1*2C                             
$GNGSA,A,3,74,75,,,,,,,,,,,1.9,1.6,1.1*22                                       
$GPGSV,3,1,11,29,75,073,33,31,64,239,34,25,43,104,21,26,41,289,38*76            
$GPGSV,3,2,11,21,27,169,,02,13,038,,16,13,286,32,23,12,323,30*70                
$GPGSV,3,3,11,05,07,070,,12,06,104,20,03,00,302,22*4C                           
$GLGSV,2,1,08,74,84,292,23,84,70,207,,83,50,042,,73,39,146,*62                  
$GLGSV,2,2,08,75,29,320,25,85,20,217,,66,11,345,,67,08,035,*64                  
$GNRMC,071058.000,A,5127.2212,N,00058.9794,W,000.0,195.9,011015,,,A*65          
$GNVTG,195.9,T,,M,000.0,N,000.0,K,A*17                                          
$GNZDA,071058.000,01,10,2015,00,00*45                                           
$GNGGA,071059.000,5127.2212,N,00058.9794,W,1,09,1.6,57.1,M,48.3,M,,0000*64      
$GNGLL,5127.2212,N,00058.9794,W,071059.000,A,A*53                               
$GNGSA,A,3,12,31,25,29,23,26,16,,,,,,1.9,1.6,1.1*2C                             
$GNGSA,A,3,74,75,,,,,,,,,,,1.9,1.6,1.1*22                                       
$GNRMC,071059.000,A,5127.2212,N,00058.9794,W,000.0,195.9,011015,,,A*64          
$GNVTG,195.9,T,,M,000.0,N,000.0,K,A*17                                          
$GNZDA,071059.000,01,10,2015,00,00*44                                           
$GNGGA,071100.000,5127.2212,N,00058.9794,W,1,08,1.8,57.1,M,48.3,M,,0000*66      
$GNGLL,5127.2212,N,00058.9794,W,071100.000,A,A*5E                               
$GNGSA,A,3,12,31,25,29,26,16,,,,,,,2.2,1.8,1.2*28                               
$GNGSA,A,3,74,75,,,,,,,,,,,2.2,1.8,1.2*27                                       
$GNRMC,071100.000,A,5127.2212,N,00058.9794,W,000.0,195.9,011015,,,A*69          
$GNVTG,195.9,T,,M,000.0,N,000.0,K,A*17                                          
$GNZDA,071100.000,01,10,2015,00,00*49                                           
$GNGGA,071101.000,5127.2212,N,00058.9794,W,1,09,1.6,57.1,M,48.3,M,,0000*68      
$GNGLL,5127.2212,N,00058.9794,W,071101.000,A,A*5F                               
$GNGSA,A,3,12,31,25,29,23,26,16,,,,,,1.9,1.6,1.1*2C                             
$GNGSA,A,3,74,75,,,,,,,,,,,1.9,1.6,1.1*22                                       
$GPGSV,3,1,11,29,75,072,32,31,64,239,34,25,43,104,20,26,41,289,38*77            
$GPGSV,3,2,11,21,27,169,,02,13,038,,16,13,286,32,23,12,323,31*71                
$GPGSV,3,3,11,05,07,070,,12,06,104,19,03,00,302,29*4D                           
$GLGSV,2,1,08,74,84,292,23,84,70,207,,83,50,042,,73,39,146,*62                  
$GLGSV,2,2,08,75,29,320,25,85,20,217,,66,11,345,,67,08,035,*64                  
$GNRMC,071101.000,A,5127.2212,N,00058.9794,W,000.0,195.9,011015,,,A*68          
$GNVTG,195.9,T,,M,000.0,N,000.0,K,A*17                                          
$GNZDA,071101.000,01,10,2015,00,00*48                                           
$GNGGA,071102.000,5127.2212,N,00058.9794,W,1,09,1.6,57.1,M,48.3,M,,0000*6B      
$GNGLL,5127.2212,N,00058.9794,W,071102.000,A,A*5C                               
$GNGSA,A,3,12,31,25,29,23,26,16,,,,,,1.9,1.6,1.1*2C                             
$GNGSA,A,3,74,75,,,,,,,,,,,1.9,1.6,1.1*22                                       
$GNRMC,071102.000,A,5127.2212,N,00058.9794,W,000.0,195.9,011015,,,A*6B          
$GNVTG,195.9,T,,M,000.0,N,000.0,K,A*17                                          
$GNZDA,071102.000,01,10,2015,00,00*4B                                           
$GNGGA,071103.000,5127.2212,N,00058.9794,W,1,08,1.6,57.1,M,48.3,M,,0000*6B      
$GNGLL,5127.2212,N,00058.9794,W,071103.000,A,A*5D                               
$GNGSA,A,3,12,31,29,23,26,16,,,,,,,2.0,1.6,1.2*22                               
$GNGSA,A,3,74,75,,,,,,,,,,,2.0,1.6,1.2*2B                                       
$GNRMC,071103.000,A,5127.2212,N,00058.9794,W,000.0,195.9,011015,,,A*6A          
$GNVTG,195.9,T,,M,000.0,N,000.0,K,A*17                                          
$GNZDA,071103.000,01,10,2015,00,00*4A                                           
$GNGGA,071104.000,5127.2212,N,00058.9794,W,1,08,1.8,57.1,M,48.3,M,,0000*62      
$GNGLL,5127.2212,N,00058.9794,W,071104.000,A,A*5A                               
$GNGSA,A,3,12,31,25,29,26,16,,,,,,,2.2,1.8,1.2*28                               
$GNGSA,A,3,74,75,,,,,,,,,,,2.2,1.8,1.2*27                                       
$GPGSV,3,1,11,29,75,072,32,31,64,238,34,25,43,104,21,26,41,289,38*77            
$GPGSV,3,2,11,21,27,169,,02,13,038,,16,13,286,32,23,12,323,32*72                
$GPGSV,3,3,11,05,07,070,,12,06,104,19,03,00,302,29*4D                           
$GLGSV,2,1,08,74,84,292,22,84,70,207,,83,50,042,,73,39,146,*63                  
$GLGSV,2,2,08,75,29,320,25,85,20,217,,66,11,345,,67,08,035,*64                  
$GNRMC,071104.000,A,5127.2212,N,00058.9794,W,000.0,195.9,011015,,,A*6D          
$GNVTG,195.9,T,,M,000.0,N,000.0,K,A*17                                          
$GNZDA,071104.000,01,10,2015,00,00*4D   
