$GPGGA,160033.184,5127.2245,N,00058.9946,W,1,04,4.0,82.5,M,48.3,M,,0000*7B

$GPGSA,A,3,15,13,21,18,,,,,,,,,5.4,4.0,3.5*3D

$GPGSV,2,1,07,13,81,101,29,15,56,291,27,18,17,318,32,21,10,291,18*70

$GPGSV,2,2,07,19,04,011,,17,03,120,,28,00,000,24*48

$GPRMC,160033.184,A,5127.2245,N,00058.9946,W,000.0,174.6,080215,,,A*73

$GPVTG,174.6,T,,M,000.0,N,000.0,K,A*09

$GPGGA,160034.184,5127.2245,N,00058.9946,W,1,04,4.0,82.5,M,48.3,M,,0000*7C

$GPGSA,A,3,15,13,21,18,,,,,,,,,5.4,4.0,3.5*3D

$GPGSV,2,1,07,13,81,101,29,15,56,291,27,18,17,318,33,21,10,291,18*71

$GPGSV,2,2,07,19,04,011,,17,03,120,,28,00,000,24*48

$GPRMC,160034.184,A,5127.2245,N,00058.9946,W,000.0,174.6,080215,,,A*74

$GPVTG,174.6,T,,M,000.0,N,000.0,K,A*09

$GPGGA,160035.184,5127.2245,N,00058.9946,W,1,04,4.0,82.5,M,48.3,M,,0000*7D

$GPGSA,A,3,15,13,21,18,,,,,,,,,5.4,4.0,3.5*3D

$GPGSV,2,1,07,13,81,101,30,15,56,291,27,18,17,318,33,21,10,291,18*79

$GPGSV,2,2,07,19,04,011,,17,03,120,,28,00,000,24*48

$GPRMC,160035.184,A,5127.2245,N,00058.9946,W,000.0,174.6,080215,,,A*75

$GPVTG,174.6,T,,M,000.0,N,000.0,K,A*09

$GPGGA,160036.184,5127.2245,N,00058.9946,W,1,04,4.0,82.5,M,48.3,M,,0000*7E

$GPGSA,A,3,15,13,21,18,,,,,,,,,5.4,4.0,3.5*3D

$GPGSV,2,1,07,13,81,101,29,15,56,291,27,18,17,318,32,21,10,291,18*70

$GPGSV,2,2,07,19,04,011,,17,03,120,,28,00,000,24*48

$GPRMC,160036.184,A,5127.2245,N,00058.9946,W,000.0,174.6,080215,,,A*76

$GPVTG,174.6,T,,M,000.0,N,000.0,K,A*09

$GPGGA,160037.184,5127.2245,N,00058.9946,W,1,04,4.0,82.5,M,48.3,M,,0000*7F

$GPGSA,A,3,15,13,21,18,,,,,,,,,5.4,4.0,3.5*3D

$GPGSV,2,1,07,13,81,101,30,15,57,291,27,18,17,318,33,21,10,291,19*79

$GPGSV,2,2,07,19,04,011,,17,03,120,,28,00,000,24*48

$GPRMC,160037.184,A,5127.2245,N,00058.9946,W,000.0,174.6,080215,,,A*77

$GPVTG,174.6,T,,M,000.0,N,000.0,K,A*09

$GPGGA,160038.184,5127.2245,N,00058.9946,W,1,04,4.0,82.5,M,48.3,M,,0000*70

$GPGSA,A,3,15,13,21,18,,,,,,,,,5.4,4.0,3.5*3D

$GPGSV,2,1,07,13,81,101,29,15,57,291,27,18,17,318,33,21,10,291,19*71

$GPGSV,2,2,07,19,04,011,,17,03,120,,28,00,000,24*48

$GPRMC,160038.184,A,5127.2245,N,00058.9946,W,000.0,174.6,080215,,,A*78

$GPVTG,174.6,T,,M,000.0,N,000.0,K,A*09

$GPGGA,160039.184,5127.2245,N,00058.9946,W,1,04,4.0,82.5,M,48.3,M,,0000*71

$GPGSA,A,3,15,13,21,18,,,,,,,,,5.4,4.0,3.5*3D

$GPGSV,2,1,07,13,81,101,30,15,57,291,27,18,17,318,33,21,10,291,19*79

$GPGSV,2,2,07,19,04,011,,17,03,120,,28,00,000,24*48

$GPRMC,160039.184,A,5127.2245,N,00058.9946,W,000.0,174.6,080215,,,A*79

$GPVTG,174.6,T,,M,000.0,N,000.0,K,A*09

$GPGGA,160040.184,5127.2245,N,00058.9946,W,1,04,4.0,82.5,M,48.3,M,,0000*7F

$GPGSA,A,3,15,13,21,18,,,,,,,,,5.4,4.0,3.5*3D

$GPGSV,2,1,07,13,81,101,30,15,57,291,27,18,17,318,33,21,10,291,19*79

$GPGSV,2,2,07,19,04,011,,17,03,120,,28,00,000,23*4F

$GPRMC,160040.184,A,5127.2245,N,00058.9946,W,000.0,174.6,080215,,,A*77

$GPVTG,174.6,T,,M,000.0,N,000.0,K,A*09

$GPGGA,160041.184,5127.2245,N,00058.9946,W,1,04,4.0,82.5,M,48.3,M,,0000*7E

$GPGSA,A,3,15,13,21,18,,,,,,,,,5.4,4.0,3.5*3D

$GPGSV,2,1,07,13,81,101,29,15,57,291,27,18,17,318,33,21,10,291,18*70

$GPGSV,2,2,07,19,04,011,,17,03,120,,28,00,000,23*4F

$GPRMC,160041.184,A,5127.2245,N,00058.9946,W,000.0,174.6,080215,,,A*76

$GPVTG,174.6,T,,M,000.0,N,000.0,K,A*09

$GPGGA,160042.184,5127.2224,N,00058.9947,W,1,04,4.0,78.6,M,48.3,M,,0000*7D

$GPGSA,A,3,15,13,21,18,,,,,,,,,5.4,4.0,3.5*3D

$GPGSV,2,1,07,13,81,101,29,15,57,291,27,18,17,318,33,21,10,291,18*70

$GPGSV,2,2,07,19,04,011,,17,03,120,,28,00,000,23*4F

$GPRMC,160042.184,A,5127.2224,N,00058.9947,W,000.0,174.6,080215,,,A*73

$GPVTG,174.6,T,,M,000.0,N,000.0,K,A*09

$GPGGA,160043.184,5127.2224,N,00058.9947,W,1,04,4.0,78.6,M,48.3,M,,0000*7C

$GPGSA,A,3,15,13,21,18,,,,,,,,,5.4,4.0,3.5*3D

$GPGSV,2,1,07,13,81,101,30,15,57,291,28,18,17,318,33,21,10,291,18*77

$GPGSV,2,2,07,19,04,011,,17,03,120,,28,00,000,23*4F

$GPRMC,160043.184,A,5127.2224,N,00058.9947,W,000.0,174.6,080215,,,A*72

$GPVTG,174.6,T,,M,000.0,N,000.0,K,A*09

$GPGGA,160044.184,5127.2224,N,00058.9947,W,1,04,4.0,78.6,M,48.3,M,,0000*7B

$GPGSA,A,3,15,13,21,18,,,,,,,,,5.4,4.0,3.5*3D

$GPGSV,2,1,07,13,81,101,30,15,57,291,27,18,17,318,33,21,10,291,18*78

$GPGSV,2,2,07,19,04,011,,17,03,120,,28,00,000,23*4F

$GPRMC,160044.184,A,5127.2224,N,00058.9947,W,000.0,174.6,080215,,,A*75

$GPVTG,174.6,T,,M,000.0,N,000.0,K,A*09

$GPGGA,160045.184,5127.2224,N,00058.9947,W,1,04,4.0,78.6,M,48.3,M,,0000*7A

$GPGSA,A,3,15,13,21,18,,,,,,,,,5.4,4.0,3.5*3D

$GPGSV,2,1,07,13,81,101,30,15,57,291,27,18,17,318,33,21,10,291,18*78

$GPGSV,2,2,07,19,04,011,,17,03,120,,28,00,000,23*4F

$GPRMC,160045.184,A,5127.2224,N,00058.9947,W,000.0,174.6,080215,,,A*74

$GPVTG,174.6,T,,M,000.0,N,000.0,K,A*09

$GPGGA,160046.184,5127.2224,N,00058.9947,W,1,04,4.0,78.6,M,48.3,M,,0000*79

$GPGSA,A,3,15,13,21,18,,,,,,,,,5.4,4.0,3.5*3D

$GPGSV,2,1,07,13,81,101,30,15,57,291,27,18,17,318,33,21,10,291,18*78

$GPGSV,2,2,07,19,04,011,,17,03,120,,28,00,000,23*4F

$GPRMC,160046.184,A,5127.2224,N,00058.9947,W,000.0,174.6,080215,,,A*77

$GPVTG,174.6,T,,M,000.0,N,000.0,K,A*09

$GPGGA,160047.184,5127.2224,N,00058.9947,W,1,04,4.0,78.6,M,48.3,M,,0000*78

$GPGSA,A,3,15,13,21,18,,,,,,,,,5.4,4.0,3.5*3D

$GPGSV,2,1,07,13,81,101,30,15,57,291,27,18,17,318,33,21,10,291,18*78

$GPGSV,2,2,07,19,04,011,,17,03,120,,28,00,000,23*4F

$GPRMC,160047.184,A,5127.2224,N,00058.9947,W,000.0,174.6,080215,,,A*76

$GPVTG,174.6,T,,M,000.0,N,000.0,K,A*09

$GPGGA,160048.184,5127.2224,N,00058.9947,W,1,04,4.0,78.6,M,48.3,M,,0000*77

$GPGSA,A,3,15,13,21,18,,,,,,,,,5.4,4.0,3.5*3D

$GPGSV,2,1,07,13,81,101,30,15,57,291,27,18,17,318,33,21,10,291,18*78

$GPGSV,2,2,07,19,04,011,,17,03,120,,28,00,000,23*4F

$GPRMC,160048.184,A,5127.2224,N,00058.9947,W,000.0,174.6,080215,,,A*79

$GPVTG,174.6,T,,M,000.0,N,000.0,K,A*09

$GPGGA,160049.184,5127.2224,N,00058.9947,W,1,04,4.0,78.6,M,48.3,M,,0000*76

$GPGSA,A,3,15,13,21,18,,,,,,,,,5.4,4.0,3.5*3D

$GPGSV,2,1,07,13,80,102,30,15,57,291,27,18,17,318,33,21,10,291,18*7A

$GPGSV,2,2,07,19,04,011,,17,03,120,,28,00,000,23*4F

$GPRMC,160049.184,A,5127.2224,N,00058.9947,W,000.0,174.6,080215,,,A*78

$GPVTG,174.6,T,,M,000.0,N,000.0,K,A*09

